{"displayFieldName":"","fieldAliases":{"FID":"FID","_id":"_id","No_":"No_","Line_Code":"Line_Code","Status":"Status","Station_Co":"Station_Co","Station_Na":"Station_Na","Station__1":"Station__1","Latitude":"Latitude","Longitude":"Longitude","เขต":"เขต"},"geometryType":"esriGeometryPoint","spatialReference":{"wkid":4326,"latestWkid":4326},"fields":[{"name":"FID","type":"esriFieldTypeOID","alias":"FID"},{"name":"_id","type":"esriFieldTypeInteger","alias":"_id"},{"name":"No_","type":"esriFieldTypeInteger","alias":"No_"},{"name":"Line_Code","type":"esriFieldTypeString","alias":"Line_Code","length":254},{"name":"Status","type":"esriFieldTypeInteger","alias":"Status"},{"name":"Station_Co","type":"esriFieldTypeString","alias":"Station_Co","length":254},{"name":"Station_Na","type":"esriFieldTypeString","alias":"Station_Na","length":254},{"name":"Station__1","type":"esriFieldTypeString","alias":"Station__1","length":254},{"name":"Latitude","type":"esriFieldTypeDouble","alias":"Latitude"},{"name":"Longitude","type":"esriFieldTypeDouble","alias":"Longitude"},{"name":"เขต","type":"esriFieldTypeString","alias":"เขต","length":254}],"features":[{"attributes":{"FID":0,"_id":19,"No_":19,"Line_Code":"Blue","Status":1,"Station_Co":"BL09","Station_Na":"Bang Pho","Station__1":"บางโพ","Latitude":13.806467209999999,"Longitude":100.5210402,"เขต":"เขตบางซื่อ"},"geometry":{"x":100.52104020000007,"y":13.806467210000051}},{"attributes":{"FID":1,"_id":20,"No_":20,"Line_Code":"Blue","Status":1,"Station_Co":"BL10","Station_Na":"Tao Poon","Station__1":"เตาปูน","Latitude":13.806212589999999,"Longitude":100.530759,"เขต":"เขตบางซื่อ"},"geometry":{"x":100.53075900000005,"y":13.80621259000003}},{"attributes":{"FID":2,"_id":21,"No_":21,"Line_Code":"Blue","Status":1,"Station_Co":"BL11","Station_Na":"Bang Sue","Station__1":"บางซื่อ","Latitude":13.80312385,"Longitude":100.5391893,"เขต":"เขตบางซื่อ"},"geometry":{"x":100.53918930000003,"y":13.803123850000077}},{"attributes":{"FID":3,"_id":247,"No_":247,"Line_Code":"Purple","Status":1,"Station_Co":"PP14","Station_Na":"Wong Sawang","Station__1":"วงศ์สว่าง","Latitude":13.830060509999999,"Longitude":100.5264559,"เขต":"เขตบางซื่อ"},"geometry":{"x":100.52645590000009,"y":13.830060510000067}},{"attributes":{"FID":4,"_id":248,"No_":248,"Line_Code":"Purple","Status":1,"Station_Co":"PP15","Station_Na":"Bang Son","Station__1":"บางซ่อน","Latitude":13.820332240000001,"Longitude":100.5324967,"เขต":"เขตบางซื่อ"},"geometry":{"x":100.53249670000008,"y":13.820332240000027}},{"attributes":{"FID":5,"_id":312,"No_":312,"Line_Code":"Red west","Status":1,"Station_Co":"RW02","Station_Na":"Bang Son","Station__1":"บางซ่อน","Latitude":13.82205892,"Longitude":100.534189,"เขต":"เขตบางซื่อ"},"geometry":{"x":100.53418900000008,"y":13.822058920000075}}]}